name,lat,lon
Delhi (North Hub),28.6139,77.2090
Jaipur (Pink City),26.9124,75.7873
Mumbai (West Port),19.0760,72.8777
Pune (Auto Hub),18.5204,73.8567
Bangalore (Tech Hub),12.9716,77.5946
Chennai (South Port),13.0827,80.2707
Hyderabad (Central Hub),17.3850,78.4867
Visakhapatnam (East Port),17.6868,83.2185
Kolkata (East Hub),22.5726,88.3639
Varanasi (Central UP),25.3176,82.9739